<?xml version="1.0" encoding="UTF-8"?>
<kml xmlns="http://www.opengis.net/kml/2.2">
  <Document>
    <name>Ruta de la tapa por Granada (a pie)</name>
    
        <Placemark>
            <name>Paso 1 - Puerta de Elvira</name>
            <description>Dirección: Plaza del Triunfo, Granada
Tapas: Punto de encuentro inicial</description>
            <Point><coordinates>-3.59961789,37.18214277,0</coordinates></Point>
        </Placemark>
        
        <Placemark>
            <name>Paso 2 - Bar Lara (San Miguel Bajo)</name>
            <description>Dirección: Plaza San Miguel Bajo
Tapas: Habitas con jamón / tortilla</description>
            <Point><coordinates>-3.59255,37.18127,0</coordinates></Point>
        </Placemark>
        
        <Placemark>
            <name>Paso 3 - Restaurante Mirador de San Nicolás</name>
            <description>Dirección: nan
Tapas: Tosta moruna</description>
            <Point><coordinates>-3.59086,37.18192,0</coordinates></Point>
        </Placemark>
        
        <Placemark>
            <name>Paso 4 - Restaurante Aixa (Plaza Larga / Arco de las Pesas)</name>
            <description>Dirección: nan
Tapas: Berenjenas con miel</description>
            <Point><coordinates>-3.58969,37.18261,0</coordinates></Point>
        </Placemark>
        
        <Placemark>
            <name>Paso 5 - Restaurante Ladrillo II (Calle Panaderos)</name>
            <description>Dirección: nan
Tapas: Migas / choto</description>
            <Point><coordinates>-3.58853,37.18202,0</coordinates></Point>
        </Placemark>
        
        <Placemark>
            <name>Paso 6 - Bar Aliatar (Plaza Aliatar)</name>
            <description>Dirección: nan
Tapas: Pionono salado / pescaíto</description>
            <Point><coordinates>-3.58822,37.18161,0</coordinates></Point>
        </Placemark>
        
        <Placemark>
            <name>Paso 7 - La Entraiya (Calle Pagés)</name>
            <description>Dirección: nan
Tapas: Montadito de lomo</description>
            <Point><coordinates>-3.58804,37.18101,0</coordinates></Point>
        </Placemark>
        
        <Placemark>
            <name>Paso 8 - Casa 1899 (Paseo de los Tristes)</name>
            <description>Dirección: nan
Tapas: Remojón granadino</description>
            <Point><coordinates>-3.59039,37.17938,0</coordinates></Point>
        </Placemark>
        
        <Placemark>
            <name>Paso 9 - Ras Café (dirección Plaza Nueva)</name>
            <description>Dirección: nan
Tapas: Tosta de salmón</description>
            <Point><coordinates>-3.59423,37.17777,0</coordinates></Point>
        </Placemark>
        
        <Placemark>
            <name>Paso 10 - Bar Minotauro (dirección Plaza Nueva)</name>
            <description>Dirección: nan
Tapas: Paella / pincho</description>
            <Point><coordinates>-3.59352,37.17752,0</coordinates></Point>
        </Placemark>
        
        <Placemark>
            <name>Paso 11 - Taberna el 22 (Cuesta San Gregorio)</name>
            <description>Dirección: nan
Tapas: Jamón y queso</description>
            <Point><coordinates>-3.59305,37.17852,0</coordinates></Point>
        </Placemark>
        
        <Placemark>
            <name>Paso 12 - Las Bodegas Castañeda</name>
            <description>Dirección: C. Almireceros, 1-3, Centro, 18010 Granada
Tapas: Tablas frías y calientes, embutidos, croquetas, rabo de toro, bacalao con pisto, tomate aliñado, gazpacho, montaditos, Calicasas (vermut de la casa)</description>
            <Point><coordinates>-3.59699,37.17683,0</coordinates></Point>
        </Placemark>
        
        <Placemark>
            <name>Paso 13 - Bar La Muralla</name>
            <description>Dirección: C. Elvira, 2, Albaicín, 18010 Granada
Tapas: Tapas granadinas variadas, montaditos, raciones tradicionales</description>
            <Point><coordinates>-3.59865,37.17706,0</coordinates></Point>
        </Placemark>
        
        <Placemark>
            <name>Paso 14 - Casa Julio 1947</name>
            <description>Dirección: C. Hermosa, 5, Centro, 18010 Granada
Tapas: Boquerones fritos, rape en adobo, calamares fritos, berenjenas con miel, pescaito frito, croquetas</description>
            <Point><coordinates>-3.598,37.178,0</coordinates></Point>
        </Placemark>
        
        <Placemark>
            <name>Paso 15 - Los Manueles Reyes Católicos – Restaurante Granadino</name>
            <description>Dirección: C. Reyes Católicos, 61, Centro, 18010 Granada
Tapas: Croquetas de jamón ibérico (emblemáticas), flamenquines, berenjenas con miel, callos, rabo de toro, pescaíto frito, tortilla, guisos</description>
            <Point><coordinates>-3.59803,37.17653,0</coordinates></Point>
        </Placemark>
        
        <Placemark>
            <name>Paso 16 - Taberna Cisco y Tierra (C/ Lepanto)</name>
            <description>Dirección: nan
Tapas: Carrillera</description>
            <Point><coordinates>-3.59938,37.17576,0</coordinates></Point>
        </Placemark>
        
        <Placemark>
            <name>Paso 17 - Lumbre: Las Brasas de Moma</name>
            <description>Dirección: nan
Tapas: Brocheta a la brasa</description>
            <Point><coordinates>-3.60016,37.17517,0</coordinates></Point>
        </Placemark>
        
        <Placemark>
            <name>Paso 18 - Restaurante La Blanca Paloma Centro (Escudo del Carmen)</name>
            <description>Dirección: nan
Tapas: Croquetas caseras</description>
            <Point><coordinates>-3.60067,37.17458,0</coordinates></Point>
        </Placemark>
        
        <Placemark>
            <name>Paso 19 - Bar Patio Braserito (C/ Navas)</name>
            <description>Dirección: nan
Tapas: Pinchito moruno</description>
            <Point><coordinates>-3.60157,37.17406,0</coordinates></Point>
        </Placemark>
        
        <Placemark>
            <name>Paso 20 - Taberna La Tana (Virgen del Rosario) — FIN</name>
            <description>Dirección: nan
Tapas: Selección de vinos + tapa del día</description>
            <Point><coordinates>-3.59839,37.17366,0</coordinates></Point>
        </Placemark>
        
    <Placemark>
      <name>Recorrido a pie</name>
      <Style>
        <LineStyle><width>4</width></LineStyle>
      </Style>
      <LineString>
        <tessellate>1</tessellate>
        <coordinates>
          -3.59961789,37.18214277,0 -3.59255,37.18127,0 -3.59086,37.18192,0 -3.58969,37.18261,0 -3.58853,37.18202,0 -3.58822,37.18161,0 -3.58804,37.18101,0 -3.59039,37.17938,0 -3.59423,37.17777,0 -3.59352,37.17752,0 -3.59305,37.17852,0 -3.59699,37.17683,0 -3.59865,37.17706,0 -3.598,37.178,0 -3.59803,37.17653,0 -3.59938,37.17576,0 -3.60016,37.17517,0 -3.60067,37.17458,0 -3.60157,37.17406,0 -3.59839,37.17366,0
        </coordinates>
      </LineString>
    </Placemark>
  </Document>
</kml>
